[
  {
    "id": "al-1",
    "name": "Vulcan Coach",
    "address": "614 Woodward Road",
    "city": "Midfield",
    "state": "AL",
    "zip": "35228",
    "phone": "(205) 491-0081",
    "email": "Vulcan.coach@yahoo.com",
    "website": "https://www.vulcancoach.com",
    "latitude": 33.4734,
    "longitude": -86.8025,
    "photos": [
      "https://lirp.cdn-website.com/10213fe7bdbf4f8aa96a87dfab968cc0/dms3rep/multi/opt/IMG_2920-1920w.JPEG"
    ],
    "socialMedia": {
      "facebook": "https://www.facebook.com/100063404357340/",
      "instagram": "",
      "youtube": ""
    }
  },
  {
    "id": "al-2",
    "name": "Storyteller Overland",
    "address": "428 Industrial Lane",
    "city": "Birmingham",
    "state": "AL",
    "zip": "35211",
    "phone": "(888) 999-7442",
    "email": "letsgo@storytelleroverland.com",
    "website": "https://www.storytelleroverland.com",
    "latitude": 33.5186,
    "longitude": -86.8104,
    "photos": [
      "https://storytelleroverland.com/wp-content/uploads/2023/01/MODE-4x4-Exterior-1.jpg"
    ],
    "socialMedia": {
      "facebook": "https://www.facebook.com/storytelleroverland/",
      "instagram": "https://www.instagram.com/storytelleroverland/",
      "youtube": "https://www.youtube.com/channel/UCQKqHvVeVJ4vJ4vJ4vJ4vJQ"
    }
  },
  {
    "id": "al-3",
    "name": "Gearbox Adventure Rentals",
    "address": "2765 Cone Drive",
    "city": "Birmingham",
    "state": "AL",
    "zip": "35217",
    "phone": "(205) 379-0027",
    "email": "craig@gearboxrentals.com",
    "website": "https://www.gearboxrentals.com",
    "latitude": 33.5186,
    "longitude": -86.8104,
    "photos": [
      "https://www.gearboxrentals.com/images/van-exterior.jpg"
    ],
    "socialMedia": {
      "facebook": "https://www.facebook.com/gearboxrentals/",
      "instagram": "https://www.instagram.com/gearboxrentals/",
      "youtube": ""
    }
  }
]
